$GPGGA,205822.1,0609.896166,N,07536.103706,W,1,03,2.6,1572.7,M,13.0,M,,*7E
$GPRMC,205822.1,A,0609.896166,N,07536.103706,W,0.0,17.4,200522,4.7,W,A*30
$GPGGA,205823.0,0609.896179,N,07536.103717,W,1,04,2.1,1572.7,M,13.0,M,,*70
$GPRMC,205823.0,A,0609.896179,N,07536.103717,W,0.0,17.4,200522,4.7,W,A*3E
$GPGGA,205824.0,0609.896207,N,07536.103696,W,1,04,1.0,1572.7,M,13.0,M,,*77
$GPRMC,205824.0,A,0609.896207,N,07536.103696,W,0.0,17.4,200522,4.7,W,A*3B
$GPGGA,205825.0,0609.896285,N,07536.103633,W,1,05,0.7,1572.5,M,13.0,M,,*76
$GPRMC,205825.0,A,0609.896285,N,07536.103633,W,0.0,17.4,200522,4.7,W,A*3F
$GPGGA,205826.0,0609.896320,N,07536.103604,W,1,06,0.6,1572.3,M,13.0,M,,*7B
$GPRMC,205826.0,A,0609.896320,N,07536.103604,W,0.0,17.4,200522,4.7,W,A*36
$GPGGA,205827.0,0609.896382,N,07536.103573,W,1,06,0.7,1572.0,M,13.0,M,,*73
$GPRMC,205827.0,A,0609.896382,N,07536.103573,W,0.0,17.4,200522,4.7,W,A*3C
$GPGGA,205828.0,0609.896420,N,07536.103540,W,1,06,0.6,1572.0,M,13.0,M,,*72
$GPRMC,205828.0,A,0609.896420,N,07536.103540,W,0.0,17.4,200522,4.7,W,A*3C
$GPGGA,205829.0,0609.896495,N,07536.103528,W,1,06,0.6,1571.8,M,13.0,M,,*78
$GPRMC,205829.0,A,0609.896495,N,07536.103528,W,0.0,17.4,200522,4.7,W,A*3D
$GPGGA,205830.0,0609.896583,N,07536.103531,W,1,06,0.6,1571.7,M,13.0,M,,*71
$GPRMC,205830.0,A,0609.896583,N,07536.103531,W,0.0,17.4,200522,4.7,W,A*3B
$GPGGA,205831.0,0609.896810,N,07536.103557,W,1,06,0.6,1571.3,M,13.0,M,,*73
$GPRMC,205831.0,A,0609.896810,N,07536.103557,W,0.0,17.4,200522,4.7,W,A*3D
$GPGGA,205832.0,0609.896891,N,07536.103554,W,1,06,0.6,1571.1,M,13.0,M,,*78
$GPRMC,205832.0,A,0609.896891,N,07536.103554,W,0.0,17.4,200522,4.7,W,A*34
$GPGGA,205833.0,0609.896944,N,07536.103536,W,1,05,0.6,1570.9,M,13.0,M,,*7E
$GPRMC,205833.0,A,0609.896944,N,07536.103536,W,0.0,17.4,200522,4.7,W,A*38
$GPGGA,205834.0,0609.896913,N,07536.103489,W,1,04,0.7,1570.9,M,13.0,M,,*7E
$GPRMC,205834.0,A,0609.896913,N,07536.103489,W,0.0,17.4,200522,4.7,W,A*38
$GPGGA,205835.0,0609.896887,N,07536.103453,W,1,05,0.6,1570.9,M,13.0,M,,*74
$GPRMC,205835.0,A,0609.896887,N,07536.103453,W,0.0,17.4,200522,4.7,W,A*32
$GPGGA,205836.0,0609.896868,N,07536.103431,W,1,04,0.7,1570.9,M,13.0,M,,*72
$GPRMC,205836.0,A,0609.896868,N,07536.103431,W,0.0,17.4,200522,4.7,W,A*34
$GPGGA,205837.0,0609.896855,N,07536.103419,W,1,05,0.6,1571.0,M,13.0,M,,*7F
$GPRMC,205837.0,A,0609.896855,N,07536.103419,W,0.0,17.4,200522,4.7,W,A*31
$GPGGA,205838.0,0609.896847,N,07536.103411,W,1,05,0.7,1571.0,M,13.0,M,,*7A
$GPRMC,205838.0,A,0609.896847,N,07536.103411,W,0.0,17.4,200522,4.7,W,A*35
$GPGGA,205839.0,0609.896843,N,07536.103406,W,1,05,0.7,1571.0,M,13.0,M,,*79
$GPRMC,205839.0,A,0609.896843,N,07536.103406,W,0.0,17.4,200522,4.7,W,A*36
$GPGGA,205840.0,0609.896842,N,07536.103403,W,1,05,0.7,1571.0,M,13.0,M,,*73
$GPRMC,205840.0,A,0609.896842,N,07536.103403,W,0.0,17.4,200522,4.7,W,A*3C
$GPGGA,205841.0,0609.896839,N,07536.103401,W,1,03,0.8,1571.0,M,13.0,M,,*75
$GPRMC,205841.0,A,0609.896839,N,07536.103401,W,0.0,17.4,200522,4.7,W,A*33
$GPGGA,205842.0,0609.896836,N,07536.103398,W,1,05,0.6,1571.0,M,13.0,M,,*76
$GPRMC,205842.0,A,0609.896836,N,07536.103398,W,0.0,17.4,200522,4.7,W,A*38
$GPGGA,205843.0,0609.896829,N,07536.103392,W,1,05,0.6,1571.0,M,13.0,M,,*73
$GPRMC,205843.0,A,0609.896829,N,07536.103392,W,0.0,17.4,200522,4.7,W,A*3D
$GPGGA,205844.0,0609.896830,N,07536.103393,W,1,05,0.6,1571.0,M,13.0,M,,*7D
$GPRMC,205844.0,A,0609.896830,N,07536.103393,W,0.0,17.4,200522,4.7,W,A*33
$GPGGA,205845.0,0609.896830,N,07536.103393,W,1,05,0.6,1571.0,M,13.0,M,,*7C
$GPRMC,205845.0,A,0609.896830,N,07536.103393,W,0.0,17.4,200522,4.7,W,A*32
$GPGGA,205846.0,0609.896824,N,07536.103388,W,1,05,0.7,1571.0,M,13.0,M,,*71
$GPRMC,205846.0,A,0609.896824,N,07536.103388,W,0.0,17.4,200522,4.7,W,A*3E
$GPGGA,205847.0,0609.896823,N,07536.103388,W,1,05,0.7,1571.0,M,13.0,M,,*77
$GPRMC,205847.0,A,0609.896823,N,07536.103388,W,0.0,17.4,200522,4.7,W,A*38
$GPGGA,205848.0,0609.896823,N,07536.103388,W,1,05,0.7,1571.0,M,13.0,M,,*78
$GPRMC,205848.0,A,0609.896823,N,07536.103388,W,0.0,17.4,200522,4.7,W,A*37
$GPGGA,205849.0,0609.896819,N,07536.103384,W,1,04,0.8,1571.0,M,13.0,M,,*72
$GPRMC,205849.0,A,0609.896819,N,07536.103384,W,0.0,17.4,200522,4.7,W,A*33
$GPGGA,205850.0,0609.896814,N,07536.103381,W,1,04,0.7,1571.0,M,13.0,M,,*7D
$GPRMC,205850.0,A,0609.896814,N,07536.103381,W,0.0,17.4,200522,4.7,W,A*33
$GPGGA,205851.0,0609.896810,N,07536.103379,W,1,04,0.7,1571.0,M,13.0,M,,*7F
$GPRMC,205851.0,A,0609.896810,N,07536.103379,W,0.0,17.4,200522,4.7,W,A*31
$GPGGA,205852.0,0609.896807,N,07536.103375,W,1,03,0.8,1571.0,M,13.0,M,,*7E
$GPRMC,205852.0,A,0609.896807,N,07536.103375,W,0.0,17.4,200522,4.7,W,A*38
$GPGGA,205853.0,0609.896803,N,07536.103372,W,1,04,0.7,1571.0,M,13.0,M,,*74
$GPRMC,205853.0,A,0609.896803,N,07536.103372,W,0.0,17.4,200522,4.7,W,A*3A
$GPGGA,205854.0,0609.896799,N,07536.103369,W,1,04,0.7,1571.0,M,13.0,M,,*75
$GPRMC,205854.0,A,0609.896799,N,07536.103369,W,0.0,17.4,200522,4.7,W,A*3B
$GPGGA,205855.0,0609.896796,N,07536.103366,W,1,04,0.7,1571.0,M,13.0,M,,*74
$GPRMC,205855.0,A,0609.896796,N,07536.103366,W,0.0,17.4,200522,4.7,W,A*3A
$GPGGA,205856.0,0609.896793,N,07536.103363,W,1,04,0.7,1571.0,M,13.0,M,,*77
$GPRMC,205856.0,A,0609.896793,N,07536.103363,W,0.0,17.4,200522,4.7,W,A*39
$GPGGA,205857.0,0609.896790,N,07536.103361,W,1,04,0.7,1571.0,M,13.0,M,,*77
$GPRMC,205857.0,A,0609.896790,N,07536.103361,W,0.0,17.4,200522,4.7,W,A*39
$GPGGA,205858.0,0609.896788,N,07536.103359,W,1,04,0.7,1571.0,M,13.0,M,,*7A
$GPRMC,205858.0,A,0609.896788,N,07536.103359,W,0.0,17.4,200522,4.7,W,A*34
$GPGGA,205859.0,0609.896785,N,07536.103356,W,1,05,0.7,1571.0,M,13.0,M,,*78
$GPRMC,205859.0,A,0609.896785,N,07536.103356,W,0.0,17.4,200522,4.7,W,A*37
$GPGGA,205900.0,0609.896782,N,07536.103354,W,1,05,0.7,1571.1,M,13.0,M,,*71
$GPRMC,205900.0,A,0609.896782,N,07536.103354,W,0.0,17.4,200522,4.7,W,A*3F
$GPGGA,205901.0,0609.896779,N,07536.103352,W,1,05,0.7,1571.1,M,13.0,M,,*72
$GPRMC,205901.0,A,0609.896779,N,07536.103352,W,0.0,17.4,200522,4.7,W,A*3C
$GPGGA,205902.0,0609.896775,N,07536.103348,W,1,05,0.7,1571.1,M,13.0,M,,*76
$GPRMC,205902.0,A,0609.896775,N,07536.103348,W,0.0,17.4,200522,4.7,W,A*38
$GPGGA,205903.0,0609.896771,N,07536.103345,W,1,04,0.7,1571.1,M,13.0,M,,*7F
$GPRMC,205903.0,A,0609.896771,N,07536.103345,W,0.0,17.4,200522,4.7,W,A*30
$GPGGA,205904.0,0609.896768,N,07536.103341,W,1,05,0.7,1571.1,M,13.0,M,,*75
$GPRMC,205904.0,A,0609.896768,N,07536.103341,W,0.0,17.4,200522,4.7,W,A*3B
$GPGGA,205905.0,0609.896764,N,07536.103338,W,1,05,0.7,1571.1,M,13.0,M,,*76
$GPRMC,205905.0,A,0609.896764,N,07536.103338,W,0.0,17.4,200522,4.7,W,A*38
$GPGGA,205906.0,0609.896761,N,07536.103334,W,1,05,0.7,1571.1,M,13.0,M,,*7C
$GPRMC,205906.0,A,0609.896761,N,07536.103334,W,0.0,17.4,200522,4.7,W,A*32
$GPGGA,205907.0,0609.896756,N,07536.103331,W,1,04,0.7,1571.1,M,13.0,M,,*7D
$GPRMC,205907.0,A,0609.896756,N,07536.103331,W,0.0,17.4,200522,4.7,W,A*32
$GPGGA,205908.0,0609.896751,N,07536.103327,W,1,05,0.7,1571.1,M,13.0,M,,*73
$GPRMC,205908.0,A,0609.896751,N,07536.103327,W,0.0,17.4,200522,4.7,W,A*3D
$GPGGA,205909.0,0609.896746,N,07536.103323,W,1,05,0.7,1571.1,M,13.0,M,,*70
$GPRMC,205909.0,A,0609.896746,N,07536.103323,W,0.0,17.4,200522,4.7,W,A*3E
$GPGGA,205910.0,0609.896742,N,07536.103320,W,1,04,0.7,1571.1,M,13.0,M,,*7E
$GPRMC,205910.0,A,0609.896742,N,07536.103320,W,0.0,17.4,200522,4.7,W,A*31
$GPGGA,205911.0,0609.896738,N,07536.103316,W,1,04,0.7,1571.1,M,13.0,M,,*77
$GPRMC,205911.0,A,0609.896738,N,07536.103316,W,0.0,17.4,200522,4.7,W,A*38
$GPGGA,205912.0,0609.896734,N,07536.103311,W,1,04,0.7,1571.1,M,13.0,M,,*7F
$GPRMC,205912.0,A,0609.896734,N,07536.103311,W,0.0,17.4,200522,4.7,W,A*30
$GPGGA,205913.0,0609.896734,N,07536.103311,W,1,04,0.7,1571.1,M,13.0,M,,*7E
$GPRMC,205913.0,A,0609.896734,N,07536.103311,W,0.0,17.4,200522,4.7,W,A*31
$GPGGA,205914.0,0609.896735,N,07536.103309,W,1,04,0.7,1571.1,M,13.0,M,,*71
$GPRMC,205914.0,A,0609.896735,N,07536.103309,W,0.0,17.4,200522,4.7,W,A*3E
$GPGGA,205915.0,0609.896736,N,07536.103309,W,1,04,0.7,1571.1,M,13.0,M,,*73
$GPRMC,205915.0,A,0609.896736,N,07536.103309,W,0.0,17.4,200522,4.7,W,A*3C
$GPGGA,205916.0,0609.896732,N,07536.103305,W,1,04,0.7,1571.1,M,13.0,M,,*78
$GPRMC,205916.0,A,0609.896732,N,07536.103305,W,0.0,17.4,200522,4.7,W,A*37
$GPGGA,205917.0,0609.896729,N,07536.103302,W,1,04,0.7,1571.1,M,13.0,M,,*74
$GPRMC,205917.0,A,0609.896729,N,07536.103302,W,0.0,17.4,200522,4.7,W,A*3B
$GPGGA,205918.0,0609.896783,N,07536.103303,W,1,04,0.7,1571.0,M,13.0,M,,*7B
$GPRMC,205918.0,A,0609.896783,N,07536.103303,W,0.0,17.4,200522,4.7,W,A*35
$GPGGA,205919.0,0609.896810,N,07536.103304,W,1,04,0.7,1571.0,M,13.0,M,,*78
$GPRMC,205919.0,A,0609.896810,N,07536.103304,W,0.0,17.4,200522,4.7,W,A*36
$GPGGA,205920.0,0609.896829,N,07536.103303,W,1,04,0.7,1570.9,M,13.0,M,,*77
$GPRMC,205920.0,A,0609.896829,N,07536.103303,W,0.0,17.4,200522,4.7,W,A*31
$GPGGA,205921.0,0609.896832,N,07536.103299,W,1,04,0.7,1570.9,M,13.0,M,,*7E
$GPRMC,205921.0,A,0609.896832,N,07536.103299,W,0.0,17.4,200522,4.7,W,A*38
$GPGGA,205922.0,0609.896835,N,07536.103295,W,1,04,0.7,1570.9,M,13.0,M,,*76
$GPRMC,205922.0,A,0609.896835,N,07536.103295,W,0.0,17.4,200522,4.7,W,A*30
$GPGGA,205923.0,0609.896838,N,07536.103290,W,1,04,0.7,1570.9,M,13.0,M,,*7F
$GPRMC,205923.0,A,0609.896838,N,07536.103290,W,0.0,17.4,200522,4.7,W,A*39
$GPGGA,205924.0,0609.896841,N,07536.103285,W,1,04,0.7,1570.9,M,13.0,M,,*72
$GPRMC,205924.0,A,0609.896841,N,07536.103285,W,0.0,17.4,200522,4.7,W,A*34
$GPGGA,205925.0,0609.896843,N,07536.103281,W,1,05,0.6,1570.9,M,13.0,M,,*75
$GPRMC,205925.0,A,0609.896843,N,07536.103281,W,0.0,17.4,200522,4.7,W,A*33
$GPGGA,205926.0,0609.896843,N,07536.103275,W,1,04,0.7,1570.9,M,13.0,M,,*7D
$GPRMC,205926.0,A,0609.896843,N,07536.103275,W,0.0,17.4,200522,4.7,W,A*3B
$GPGGA,205927.0,0609.896843,N,07536.103269,W,1,04,0.7,1570.9,M,13.0,M,,*71
$GPRMC,205927.0,A,0609.896843,N,07536.103269,W,0.0,17.4,200522,4.7,W,A*37
$GPGGA,205928.0,0609.896839,N,07536.103263,W,1,04,0.7,1570.9,M,13.0,M,,*79
$GPRMC,205928.0,A,0609.896839,N,07536.103263,W,0.0,17.4,200522,4.7,W,A*3F
$GPGGA,205929.0,0609.896835,N,07536.103257,W,1,05,0.6,1570.9,M,13.0,M,,*73
$GPRMC,205929.0,A,0609.896835,N,07536.103257,W,0.0,17.4,200522,4.7,W,A*35
$GPGGA,205930.0,0609.896831,N,07536.103252,W,1,05,0.6,1570.9,M,13.0,M,,*7A
$GPRMC,205930.0,A,0609.896831,N,07536.103252,W,0.0,17.4,200522,4.7,W,A*3C
$GPGGA,205931.0,0609.896826,N,07536.103247,W,1,05,0.6,1570.9,M,13.0,M,,*79
$GPRMC,205931.0,A,0609.896826,N,07536.103247,W,0.0,17.4,200522,4.7,W,A*3F
$GPGGA,205932.0,0609.896820,N,07536.103241,W,1,05,0.6,1570.9,M,13.0,M,,*7A
$GPRMC,205932.0,A,0609.896820,N,07536.103241,W,0.0,17.4,200522,4.7,W,A*3C
$GPGGA,205933.0,0609.896815,N,07536.103237,W,1,05,0.6,1570.9,M,13.0,M,,*7C
$GPRMC,205933.0,A,0609.896815,N,07536.103237,W,0.0,17.4,200522,4.7,W,A*3A
$GPGGA,205934.0,0609.896810,N,07536.103231,W,1,05,0.6,1570.9,M,13.0,M,,*78
$GPRMC,205934.0,A,0609.896810,N,07536.103231,W,0.0,17.4,200522,4.7,W,A*3E
$GPGGA,205935.0,0609.896804,N,07536.103226,W,1,04,0.7,1570.9,M,13.0,M,,*7A
$GPRMC,205935.0,A,0609.896804,N,07536.103226,W,0.0,17.4,200522,4.7,W,A*3C
$GPGGA,205936.0,0609.896799,N,07536.103221,W,1,04,0.7,1570.9,M,13.0,M,,*75
$GPRMC,205936.0,A,0609.896799,N,07536.103221,W,0.0,17.4,200522,4.7,W,A*33
$GPGGA,205937.0,0609.896794,N,07536.103216,W,1,04,0.7,1570.9,M,13.0,M,,*7D
$GPRMC,205937.0,A,0609.896794,N,07536.103216,W,0.0,17.4,200522,4.7,W,A*3B
$GPGGA,205938.0,0609.896791,N,07536.103212,W,1,04,0.6,1570.9,M,13.0,M,,*72
$GPRMC,205938.0,A,0609.896791,N,07536.103212,W,0.0,17.4,200522,4.7,W,A*35
$GPGGA,205939.0,0609.896787,N,07536.103208,W,1,04,0.7,1570.9,M,13.0,M,,*7E
$GPRMC,205939.0,A,0609.896787,N,07536.103208,W,0.0,17.4,200522,4.7,W,A*38
$GPGGA,205940.0,0609.896783,N,07536.103204,W,1,04,0.7,1570.9,M,13.0,M,,*78
$GPRMC,205940.0,A,0609.896783,N,07536.103204,W,0.0,17.4,200522,4.7,W,A*3E
$GPGGA,205941.0,0609.896778,N,07536.103200,W,1,04,0.7,1571.0,M,13.0,M,,*71
$GPRMC,205941.0,A,0609.896778,N,07536.103200,W,0.0,17.4,200522,4.7,W,A*3F
$GPGGA,205942.0,0609.896772,N,07536.103195,W,1,04,0.6,1571.0,M,13.0,M,,*76
$GPRMC,205942.0,A,0609.896772,N,07536.103195,W,0.0,17.4,200522,4.7,W,A*39
$GPGGA,205943.0,0609.896767,N,07536.103190,W,1,04,0.6,1571.0,M,13.0,M,,*76
$GPRMC,205943.0,A,0609.896767,N,07536.103190,W,0.0,17.4,200522,4.7,W,A*39
$GPGGA,205944.0,0609.896762,N,07536.103186,W,1,04,0.7,1571.0,M,13.0,M,,*72
$GPRMC,205944.0,A,0609.896762,N,07536.103186,W,0.0,17.4,200522,4.7,W,A*3C
$GPGGA,205945.0,0609.896756,N,07536.103180,W,1,04,0.6,1571.0,M,13.0,M,,*73
$GPRMC,205945.0,A,0609.896756,N,07536.103180,W,0.0,17.4,200522,4.7,W,A*3C
$GPGGA,205946.0,0609.896750,N,07536.103174,W,1,05,0.6,1571.0,M,13.0,M,,*7C
$GPRMC,205946.0,A,0609.896750,N,07536.103174,W,0.0,17.4,200522,4.7,W,A*32
$GPGGA,205947.0,0609.896747,N,07536.103170,W,1,04,0.7,1571.0,M,13.0,M,,*7F
$GPRMC,205947.0,A,0609.896747,N,07536.103170,W,0.0,17.4,200522,4.7,W,A*31
$GPGGA,205948.0,0609.896744,N,07536.103167,W,1,04,0.7,1571.0,M,13.0,M,,*75
$GPRMC,205948.0,A,0609.896744,N,07536.103167,W,0.0,17.4,200522,4.7,W,A*3B
$GPGGA,205949.0,0609.896741,N,07536.103164,W,1,04,0.7,1571.0,M,13.0,M,,*72
$GPRMC,205949.0,A,0609.896741,N,07536.103164,W,0.0,17.4,200522,4.7,W,A*3C
$GPGGA,205950.0,0609.896739,N,07536.103161,W,1,05,0.6,1571.0,M,13.0,M,,*70
$GPRMC,205950.0,A,0609.896739,N,07536.103161,W,0.0,17.4,200522,4.7,W,A*3E
$GPGGA,205951.0,0609.896737,N,07536.103158,W,1,05,0.6,1571.0,M,13.0,M,,*75
$GPRMC,205951.0,A,0609.896737,N,07536.103158,W,0.0,17.4,200522,4.7,W,A*3B
$GPGGA,205952.0,0609.896735,N,07536.103155,W,1,05,0.6,1571.0,M,13.0,M,,*79
$GPRMC,205952.0,A,0609.896735,N,07536.103155,W,0.0,17.4,200522,4.7,W,A*37
$GPGGA,205953.0,0609.896733,N,07536.103152,W,1,05,0.6,1571.0,M,13.0,M,,*79
$GPRMC,205953.0,A,0609.896733,N,07536.103152,W,0.0,17.4,200522,4.7,W,A*37
$GPGGA,205954.0,0609.896730,N,07536.103147,W,1,05,0.7,1571.0,M,13.0,M,,*78
$GPRMC,205954.0,A,0609.896730,N,07536.103147,W,0.0,17.4,200522,4.7,W,A*37
$GPGGA,205955.0,0609.896728,N,07536.103145,W,1,05,0.7,1571.0,M,13.0,M,,*72
$GPRMC,205955.0,A,0609.896728,N,07536.103145,W,0.0,17.4,200522,4.7,W,A*3D
$GPGGA,205956.0,0609.896727,N,07536.103141,W,1,05,0.7,1571.0,M,13.0,M,,*7A
$GPRMC,205956.0,A,0609.896727,N,07536.103141,W,0.0,17.4,200522,4.7,W,A*35
$GPGGA,205957.0,0609.896726,N,07536.103139,W,1,05,0.7,1571.0,M,13.0,M,,*75
$GPRMC,205957.0,A,0609.896726,N,07536.103139,W,0.0,17.4,200522,4.7,W,A*3A
$GPGGA,205958.0,0609.896725,N,07536.103138,W,1,05,0.6,1571.0,M,13.0,M,,*79
$GPRMC,205958.0,A,0609.896725,N,07536.103138,W,0.0,17.4,200522,4.7,W,A*37
$GPGGA,205959.0,0609.896723,N,07536.103136,W,1,05,0.6,1571.0,M,13.0,M,,*70
$GPRMC,205959.0,A,0609.896723,N,07536.103136,W,0.0,17.4,200522,4.7,W,A*3E
$GPGGA,210000.0,0609.896722,N,07536.103134,W,1,05,0.6,1571.0,M,13.0,M,,*72
$GPRMC,210000.0,A,0609.896722,N,07536.103134,W,0.0,17.4,200522,4.7,W,A*3C
$GPGGA,210001.0,0609.896721,N,07536.103132,W,1,05,0.6,1571.0,M,13.0,M,,*76
$GPRMC,210001.0,A,0609.896721,N,07536.103132,W,0.0,17.4,200522,4.7,W,A*38
$GPGGA,210002.0,0609.896719,N,07536.103131,W,1,05,0.6,1571.0,M,13.0,M,,*7D
$GPRMC,210002.0,A,0609.896719,N,07536.103131,W,0.0,17.4,200522,4.7,W,A*33
$GPGGA,210003.0,0609.896721,N,07536.103131,W,1,05,0.6,1571.0,M,13.0,M,,*77
$GPRMC,210003.0,A,0609.896721,N,07536.103131,W,0.0,17.4,200522,4.7,W,A*39
$GPGGA,210004.0,0609.896721,N,07536.103132,W,1,05,0.6,1571.0,M,13.0,M,,*73
$GPRMC,210004.0,A,0609.896721,N,07536.103132,W,0.0,17.4,200522,4.7,W,A*3D
$GPGGA,210005.0,0609.896722,N,07536.103132,W,1,05,0.6,1571.0,M,13.0,M,,*71
$GPRMC,210005.0,A,0609.896722,N,07536.103132,W,0.0,17.4,200522,4.7,W,A*3F
$GPGGA,210006.0,0609.896724,N,07536.103133,W,1,05,0.6,1571.0,M,13.0,M,,*75
$GPRMC,210006.0,A,0609.896724,N,07536.103133,W,0.0,17.4,200522,4.7,W,A*3B
$GPGGA,210007.0,0609.896725,N,07536.103133,W,1,05,0.6,1571.0,M,13.0,M,,*75
$GPRMC,210007.0,A,0609.896725,N,07536.103133,W,0.0,17.4,200522,4.7,W,A*3B
$GPGGA,210008.0,0609.896726,N,07536.103134,W,1,06,0.6,1571.0,M,13.0,M,,*7D
$GPRMC,210008.0,A,0609.896726,N,07536.103134,W,0.0,17.4,200522,4.7,W,A*30
$GPGGA,210009.0,0609.896727,N,07536.103134,W,1,06,0.6,1571.0,M,13.0,M,,*7D
$GPRMC,210009.0,A,0609.896727,N,07536.103134,W,0.0,17.4,200522,4.7,W,A*30
$GPGGA,210010.0,0609.896729,N,07536.103135,W,1,06,0.6,1571.0,M,13.0,M,,*7A
$GPRMC,210010.0,A,0609.896729,N,07536.103135,W,0.0,17.4,200522,4.7,W,A*37
$GPGGA,210011.0,0609.896730,N,07536.103135,W,1,05,0.6,1571.0,M,13.0,M,,*70
$GPRMC,210011.0,A,0609.896730,N,07536.103135,W,0.0,17.4,200522,4.7,W,A*3E
$GPGGA,210012.0,0609.896732,N,07536.103135,W,1,06,0.6,1571.0,M,13.0,M,,*72
$GPRMC,210012.0,A,0609.896732,N,07536.103135,W,0.0,17.4,200522,4.7,W,A*3F
$GPGGA,210013.0,0609.896734,N,07536.103135,W,1,06,0.6,1571.0,M,13.0,M,,*75
$GPRMC,210013.0,A,0609.896734,N,07536.103135,W,0.0,17.4,200522,4.7,W,A*38
$GPGGA,210014.0,0609.896735,N,07536.103135,W,1,05,0.6,1571.0,M,13.0,M,,*70
$GPRMC,210014.0,A,0609.896735,N,07536.103135,W,0.0,17.4,200522,4.7,W,A*3E
$GPGGA,210015.0,0609.896736,N,07536.103135,W,1,06,0.6,1571.0,M,13.0,M,,*71
$GPRMC,210015.0,A,0609.896736,N,07536.103135,W,0.0,17.4,200522,4.7,W,A*3C
$GPGGA,210016.0,0609.896737,N,07536.103135,W,1,06,0.6,1571.0,M,13.0,M,,*73
$GPRMC,210016.0,A,0609.896737,N,07536.103135,W,0.0,17.4,200522,4.7,W,A*3E
$GPGGA,210017.0,0609.896738,N,07536.103135,W,1,06,0.6,1571.0,M,13.0,M,,*7D
$GPRMC,210017.0,A,0609.896738,N,07536.103135,W,0.0,17.4,200522,4.7,W,A*30
$GPGGA,210018.0,0609.896739,N,07536.103134,W,1,05,0.7,1571.0,M,13.0,M,,*70
$GPRMC,210018.0,A,0609.896739,N,07536.103134,W,0.0,17.4,200522,4.7,W,A*3F
$GPGGA,210019.0,0609.896741,N,07536.103134,W,1,06,0.6,1571.0,M,13.0,M,,*7C
$GPRMC,210019.0,A,0609.896741,N,07536.103134,W,0.0,17.4,200522,4.7,W,A*31
$GPGGA,210020.0,0609.896742,N,07536.103134,W,1,06,0.6,1571.0,M,13.0,M,,*75
$GPRMC,210020.0,A,0609.896742,N,07536.103134,W,0.0,17.4,200522,4.7,W,A*38
$GPGGA,210021.0,0609.896743,N,07536.103134,W,1,05,0.7,1571.0,M,13.0,M,,*77
$GPRMC,210021.0,A,0609.896743,N,07536.103134,W,0.0,17.4,200522,4.7,W,A*38
$GPGGA,210022.0,0609.896744,N,07536.103133,W,1,05,0.7,1571.0,M,13.0,M,,*74
$GPRMC,210022.0,A,0609.896744,N,07536.103133,W,0.0,17.4,200522,4.7,W,A*3B
$GPGGA,210023.0,0609.896745,N,07536.103133,W,1,05,0.7,1571.0,M,13.0,M,,*74
$GPRMC,210023.0,A,0609.896745,N,07536.103133,W,0.0,17.4,200522,4.7,W,A*3B
$GPGGA,210024.0,0609.896742,N,07536.103130,W,1,06,0.6,1571.0,M,13.0,M,,*75
$GPRMC,210024.0,A,0609.896742,N,07536.103130,W,0.0,17.4,200522,4.7,W,A*38
$GPGGA,210025.0,0609.896744,N,07536.103130,W,1,05,0.6,1571.0,M,13.0,M,,*71
$GPRMC,210025.0,A,0609.896744,N,07536.103130,W,0.0,17.4,200522,4.7,W,A*3F
$GPGGA,210026.0,0609.896746,N,07536.103130,W,1,06,0.6,1571.0,M,13.0,M,,*73
$GPRMC,210026.0,A,0609.896746,N,07536.103130,W,0.0,17.4,200522,4.7,W,A*3E
$GPGGA,210027.0,0609.896747,N,07536.103130,W,1,06,0.6,1570.9,M,13.0,M,,*7B
$GPRMC,210027.0,A,0609.896747,N,07536.103130,W,0.0,17.4,200522,4.7,W,A*3E
$GPGGA,210028.0,0609.896749,N,07536.103130,W,1,05,0.6,1570.9,M,13.0,M,,*79
$GPRMC,210028.0,A,0609.896749,N,07536.103130,W,0.0,17.4,200522,4.7,W,A*3F
$GPGGA,210029.0,0609.896749,N,07536.103130,W,1,06,0.6,1570.9,M,13.0,M,,*7B
$GPRMC,210029.0,A,0609.896749,N,07536.103130,W,0.0,17.4,200522,4.7,W,A*3E
$GPGGA,210030.0,0609.896750,N,07536.103129,W,1,06,0.6,1570.9,M,13.0,M,,*73
$GPRMC,210030.0,A,0609.896750,N,07536.103129,W,0.0,17.4,200522,4.7,W,A*36
$GPGGA,210031.0,0609.896752,N,07536.103129,W,1,06,0.6,1570.9,M,13.0,M,,*70
$GPRMC,210031.0,A,0609.896752,N,07536.103129,W,0.0,17.4,200522,4.7,W,A*35
$GPGGA,210032.0,0609.896753,N,07536.103129,W,1,06,0.6,1570.9,M,13.0,M,,*72
$GPRMC,210032.0,A,0609.896753,N,07536.103129,W,0.0,17.4,200522,4.7,W,A*37
$GPGGA,210033.0,0609.896752,N,07536.103128,W,1,06,0.6,1570.9,M,13.0,M,,*73
$GPRMC,210033.0,A,0609.896752,N,07536.103128,W,0.0,17.4,200522,4.7,W,A*36
$GPGGA,210034.0,0609.896751,N,07536.103127,W,1,06,0.6,1570.9,M,13.0,M,,*78
$GPRMC,210034.0,A,0609.896751,N,07536.103127,W,0.0,17.4,200522,4.7,W,A*3D
$GPGGA,210035.0,0609.896751,N,07536.103125,W,1,06,0.6,1570.9,M,13.0,M,,*7B
$GPRMC,210035.0,A,0609.896751,N,07536.103125,W,0.0,17.4,200522,4.7,W,A*3E
$GPGGA,210036.0,0609.896750,N,07536.103123,W,1,06,0.6,1571.0,M,13.0,M,,*77
$GPRMC,210036.0,A,0609.896750,N,07536.103123,W,0.0,17.4,200522,4.7,W,A*3A
$GPGGA,210037.0,0609.896749,N,07536.103122,W,1,06,0.6,1571.0,M,13.0,M,,*7F
$GPRMC,210037.0,A,0609.896749,N,07536.103122,W,0.0,17.4,200522,4.7,W,A*32
$GPGGA,210038.0,0609.896750,N,07536.103122,W,1,06,0.6,1571.0,M,13.0,M,,*78
$GPRMC,210038.0,A,0609.896750,N,07536.103122,W,0.0,17.4,200522,4.7,W,A*35
$GPGGA,210039.0,0609.896751,N,07536.103121,W,1,06,0.6,1571.0,M,13.0,M,,*7B
$GPRMC,210039.0,A,0609.896751,N,07536.103121,W,0.0,17.4,200522,4.7,W,A*36
$GPGGA,210040.0,0609.896750,N,07536.103119,W,1,05,0.6,1571.0,M,13.0,M,,*7C
$GPRMC,210040.0,A,0609.896750,N,07536.103119,W,0.0,17.4,200522,4.7,W,A*32
$GPGGA,210041.0,0609.896749,N,07536.103118,W,1,06,0.6,1571.0,M,13.0,M,,*77
$GPRMC,210041.0,A,0609.896749,N,07536.103118,W,0.0,17.4,200522,4.7,W,A*3A
$GPGGA,210042.0,0609.896748,N,07536.103116,W,1,05,0.6,1571.0,M,13.0,M,,*78
$GPRMC,210042.0,A,0609.896748,N,07536.103116,W,0.0,17.4,200522,4.7,W,A*36
$GPGGA,210043.0,0609.896747,N,07536.103114,W,1,05,0.6,1571.0,M,13.0,M,,*74
$GPRMC,210043.0,A,0609.896747,N,07536.103114,W,0.0,17.4,200522,4.7,W,A*3A
$GPGGA,210044.0,0609.896745,N,07536.103112,W,1,05,0.6,1571.0,M,13.0,M,,*77
$GPRMC,210044.0,A,0609.896745,N,07536.103112,W,0.0,17.4,200522,4.7,W,A*39
$GPGGA,210045.0,0609.896743,N,07536.103109,W,1,05,0.6,1571.0,M,13.0,M,,*7A
$GPRMC,210045.0,A,0609.896743,N,07536.103109,W,0.0,17.4,200522,4.7,W,A*34
$GPGGA,210046.0,0609.896741,N,07536.103106,W,1,05,0.6,1571.0,M,13.0,M,,*74
$GPRMC,210046.0,A,0609.896741,N,07536.103106,W,0.0,17.4,200522,4.7,W,A*3A
$GPGGA,210047.0,0609.896738,N,07536.103102,W,1,05,0.6,1571.0,M,13.0,M,,*7F
$GPRMC,210047.0,A,0609.896738,N,07536.103102,W,0.0,17.4,200522,4.7,W,A*31
$GPGGA,210048.0,0609.896736,N,07536.103099,W,1,05,0.6,1571.0,M,13.0,M,,*7D
$GPRMC,210048.0,A,0609.896736,N,07536.103099,W,0.0,17.4,200522,4.7,W,A*33
$GPGGA,210049.0,0609.896729,N,07536.103093,W,1,05,0.6,1571.0,M,13.0,M,,*78
$GPRMC,210049.0,A,0609.896729,N,07536.103093,W,0.0,17.4,200522,4.7,W,A*36
$GPGGA,210050.0,0609.896727,N,07536.103090,W,1,05,0.6,1571.0,M,13.0,M,,*7D
$GPRMC,210050.0,A,0609.896727,N,07536.103090,W,0.0,17.4,200522,4.7,W,A*33
$GPGGA,210051.0,0609.896724,N,07536.103086,W,1,05,0.6,1571.0,M,13.0,M,,*78
$GPRMC,210051.0,A,0609.896724,N,07536.103086,W,0.0,17.4,200522,4.7,W,A*36
$GPGGA,210052.0,0609.896722,N,07536.103083,W,1,05,0.6,1571.0,M,13.0,M,,*78
$GPRMC,210052.0,A,0609.896722,N,07536.103083,W,0.0,17.4,200522,4.7,W,A*36
$GPGGA,210053.0,0609.896719,N,07536.103079,W,1,05,0.6,1571.0,M,13.0,M,,*74
$GPRMC,210053.0,A,0609.896719,N,07536.103079,W,0.0,17.4,200522,4.7,W,A*3A
$GPGGA,210054.0,0609.896717,N,07536.103075,W,1,05,0.6,1571.0,M,13.0,M,,*71
$GPRMC,210054.0,A,0609.896717,N,07536.103075,W,0.0,17.4,200522,4.7,W,A*3F
$GPGGA,210055.0,0609.896714,N,07536.103072,W,1,05,0.6,1571.0,M,13.0,M,,*74
$GPRMC,210055.0,A,0609.896714,N,07536.103072,W,0.0,17.4,200522,4.7,W,A*3A
$GPGGA,210056.0,0609.896711,N,07536.103068,W,1,05,0.6,1571.0,M,13.0,M,,*79
$GPRMC,210056.0,A,0609.896711,N,07536.103068,W,0.0,17.4,200522,4.7,W,A*37
$GPGGA,210057.0,0609.896709,N,07536.103065,W,1,06,0.6,1571.0,M,13.0,M,,*7F
$GPRMC,210057.0,A,0609.896709,N,07536.103065,W,0.0,17.4,200522,4.7,W,A*32
$GPGGA,210058.0,0609.896709,N,07536.103063,W,1,06,0.6,1571.0,M,13.0,M,,*76
$GPRMC,210058.0,A,0609.896709,N,07536.103063,W,0.0,17.4,200522,4.7,W,A*3B
$GPGGA,210059.0,0609.896708,N,07536.103060,W,1,06,0.6,1571.0,M,13.0,M,,*75
$GPRMC,210059.0,A,0609.896708,N,07536.103060,W,0.0,17.4,200522,4.7,W,A*38
$GPGGA,210100.0,0609.896707,N,07536.103058,W,1,06,0.6,1571.0,M,13.0,M,,*7C
$GPRMC,210100.0,A,0609.896707,N,07536.103058,W,0.0,17.4,200522,4.7,W,A*31
$GPGGA,210101.0,0609.896705,N,07536.103055,W,1,06,0.6,1571.0,M,13.0,M,,*72
$GPRMC,210101.0,A,0609.896705,N,07536.103055,W,0.0,17.4,200522,4.7,W,A*3F
$GPGGA,210102.0,0609.896704,N,07536.103052,W,1,05,0.6,1571.0,M,13.0,M,,*74
$GPRMC,210102.0,A,0609.896704,N,07536.103052,W,0.0,17.4,200522,4.7,W,A*3A
$GPGGA,210103.0,0609.896701,N,07536.103049,W,1,05,0.6,1571.0,M,13.0,M,,*7A
$GPRMC,210103.0,A,0609.896701,N,07536.103049,W,0.0,17.4,200522,4.7,W,A*34
$GPGGA,210104.0,0609.896699,N,07536.103047,W,1,05,0.6,1571.0,M,13.0,M,,*73
$GPRMC,210104.0,A,0609.896699,N,07536.103047,W,0.0,17.4,200522,4.7,W,A*3D
$GPGGA,210105.0,0609.896698,N,07536.103045,W,1,06,0.6,1571.0,M,13.0,M,,*72
$GPRMC,210105.0,A,0609.896698,N,07536.103045,W,0.0,17.4,200522,4.7,W,A*3F
$GPGGA,210106.0,0609.896697,N,07536.103043,W,1,07,0.6,1571.0,M,13.0,M,,*79
$GPRMC,210106.0,A,0609.896697,N,07536.103043,W,0.0,17.4,200522,4.7,W,A*35
$GPGGA,210107.0,0609.896697,N,07536.103042,W,1,06,0.6,1571.0,M,13.0,M,,*78
$GPRMC,210107.0,A,0609.896697,N,07536.103042,W,0.0,17.4,200522,4.7,W,A*35
$GPGGA,210108.0,0609.896698,N,07536.103041,W,1,06,0.6,1571.0,M,13.0,M,,*7B
$GPRMC,210108.0,A,0609.896698,N,07536.103041,W,0.0,17.4,200522,4.7,W,A*36
$GPGGA,210109.0,0609.896698,N,07536.103040,W,1,06,0.6,1571.0,M,13.0,M,,*7B
$GPRMC,210109.0,A,0609.896698,N,07536.103040,W,0.0,17.4,200522,4.7,W,A*36
$GPGGA,210110.0,0609.896697,N,07536.103039,W,1,06,0.6,1571.0,M,13.0,M,,*72
$GPRMC,210110.0,A,0609.896697,N,07536.103039,W,0.0,17.4,200522,4.7,W,A*3F
$GPGGA,210111.0,0609.896697,N,07536.103038,W,1,05,0.7,1571.0,M,13.0,M,,*70
$GPRMC,210111.0,A,0609.896697,N,07536.103038,W,0.0,17.4,200522,4.7,W,A*3F
$GPGGA,210112.0,0609.896698,N,07536.103038,W,1,06,0.6,1571.0,M,13.0,M,,*7E
$GPRMC,210112.0,A,0609.896698,N,07536.103038,W,0.0,17.4,200522,4.7,W,A*33
$GPGGA,210113.0,0609.896699,N,07536.103038,W,1,05,0.7,1571.0,M,13.0,M,,*7C
$GPRMC,210113.0,A,0609.896699,N,07536.103038,W,0.0,17.4,200522,4.7,W,A*33
$GPGGA,210114.0,0609.896700,N,07536.103038,W,1,06,0.6,1571.0,M,13.0,M,,*78
$GPRMC,210114.0,A,0609.896700,N,07536.103038,W,0.0,17.4,200522,4.7,W,A*35
$GPGGA,210115.0,0609.896700,N,07536.103037,W,1,05,0.6,1571.0,M,13.0,M,,*75
$GPRMC,210115.0,A,0609.896700,N,07536.103037,W,0.0,17.4,200522,4.7,W,A*3B
$GPGGA,210116.0,0609.896701,N,07536.103037,W,1,06,0.6,1571.0,M,13.0,M,,*74
$GPRMC,210116.0,A,0609.896701,N,07536.103037,W,0.0,17.4,200522,4.7,W,A*39
$GPGGA,210117.0,0609.896701,N,07536.103036,W,1,06,0.6,1571.0,M,13.0,M,,*74
$GPRMC,210117.0,A,0609.896701,N,07536.103036,W,0.0,17.4,200522,4.7,W,A*39
$GPGGA,210118.0,0609.896702,N,07536.103036,W,1,06,0.6,1571.0,M,13.0,M,,*78
$GPRMC,210118.0,A,0609.896702,N,07536.103036,W,0.0,17.4,200522,4.7,W,A*35
$GPGGA,210119.0,0609.896703,N,07536.103035,W,1,05,0.6,1571.0,M,13.0,M,,*78
$GPRMC,210119.0,A,0609.896703,N,07536.103035,W,0.0,17.4,200522,4.7,W,A*36
$GPGGA,210120.0,0609.896704,N,07536.103035,W,1,05,0.6,1571.0,M,13.0,M,,*75
$GPRMC,210120.0,A,0609.896704,N,07536.103035,W,0.0,17.4,200522,4.7,W,A*3B
$GPGGA,210121.0,0609.896704,N,07536.103034,W,1,05,0.6,1571.0,M,13.0,M,,*75
$GPRMC,210121.0,A,0609.896704,N,07536.103034,W,0.0,17.4,200522,4.7,W,A*3B
$GPGGA,210122.0,0609.896704,N,07536.103032,W,1,05,0.6,1571.0,M,13.0,M,,*70
$GPRMC,210122.0,A,0609.896704,N,07536.103032,W,0.0,17.4,200522,4.7,W,A*3E
$GPGGA,210123.0,0609.896701,N,07536.103030,W,1,05,0.6,1571.0,M,13.0,M,,*76
$GPRMC,210123.0,A,0609.896701,N,07536.103030,W,0.0,17.4,200522,4.7,W,A*38
$GPGGA,210124.0,0609.896697,N,07536.103027,W,1,05,0.6,1571.0,M,13.0,M,,*79
$GPRMC,210124.0,A,0609.896697,N,07536.103027,W,0.0,17.4,200522,4.7,W,A*37
$GPGGA,210125.0,0609.896695,N,07536.103025,W,1,05,0.6,1571.0,M,13.0,M,,*78
$GPRMC,210125.0,A,0609.896695,N,07536.103025,W,0.0,17.4,200522,4.7,W,A*36
$GPGGA,210126.0,0609.896693,N,07536.103023,W,1,05,0.6,1571.0,M,13.0,M,,*7B
$GPRMC,210126.0,A,0609.896693,N,07536.103023,W,0.0,17.4,200522,4.7,W,A*35
$GPGGA,210127.0,0609.896691,N,07536.103021,W,1,06,0.6,1571.0,M,13.0,M,,*79
$GPRMC,210127.0,A,0609.896691,N,07536.103021,W,0.0,17.4,200522,4.7,W,A*34
$GPGGA,210128.0,0609.896690,N,07536.103019,W,1,05,0.6,1571.0,M,13.0,M,,*7F
$GPRMC,210128.0,A,0609.896690,N,07536.103019,W,0.0,17.4,200522,4.7,W,A*31
$GPGGA,210129.0,0609.896688,N,07536.103017,W,1,06,0.6,1571.0,M,13.0,M,,*7A
$GPRMC,210129.0,A,0609.896688,N,07536.103017,W,0.0,17.4,200522,4.7,W,A*37
$GPGGA,210130.0,0609.896686,N,07536.103015,W,1,06,0.6,1571.0,M,13.0,M,,*7E
$GPRMC,210130.0,A,0609.896686,N,07536.103015,W,0.0,17.4,200522,4.7,W,A*33
$GPGGA,210131.0,0609.896684,N,07536.103014,W,1,06,0.6,1571.0,M,13.0,M,,*7C
$GPRMC,210131.0,A,0609.896684,N,07536.103014,W,0.0,17.4,200522,4.7,W,A*31
$GPGGA,210132.0,0609.896683,N,07536.103012,W,1,06,0.6,1571.0,M,13.0,M,,*7E
$GPRMC,210132.0,A,0609.896683,N,07536.103012,W,0.0,17.4,200522,4.7,W,A*33
$GPGGA,210133.0,0609.896682,N,07536.103011,W,1,05,0.6,1571.0,M,13.0,M,,*7E
$GPRMC,210133.0,A,0609.896682,N,07536.103011,W,0.0,17.4,200522,4.7,W,A*30
$GPGGA,210134.0,0609.896681,N,07536.103009,W,1,06,0.6,1571.0,M,13.0,M,,*70
$GPRMC,210134.0,A,0609.896681,N,07536.103009,W,0.0,17.4,200522,4.7,W,A*3D
$GPGGA,210135.0,0609.896679,N,07536.103007,W,1,06,0.6,1571.0,M,13.0,M,,*78
$GPRMC,210135.0,A,0609.896679,N,07536.103007,W,0.0,17.4,200522,4.7,W,A*35
$GPGGA,210136.0,0609.896678,N,07536.103005,W,1,06,0.6,1571.0,M,13.0,M,,*78
$GPRMC,210136.0,A,0609.896678,N,07536.103005,W,0.0,17.4,200522,4.7,W,A*35
$GPGGA,210137.0,0609.896676,N,07536.103003,W,1,06,0.6,1571.0,M,13.0,M,,*71
$GPRMC,210137.0,A,0609.896676,N,07536.103003,W,0.0,17.4,200522,4.7,W,A*3C
$GPGGA,210138.0,0609.896675,N,07536.103001,W,1,06,0.6,1571.0,M,13.0,M,,*7F
$GPRMC,210138.0,A,0609.896675,N,07536.103001,W,0.0,17.4,200522,4.7,W,A*32
$GPGGA,210139.0,0609.896673,N,07536.102998,W,1,05,0.6,1571.0,M,13.0,M,,*73
$GPRMC,210139.0,A,0609.896673,N,07536.102998,W,0.0,17.4,200522,4.7,W,A*3D
$GPGGA,210140.0,0609.896671,N,07536.102995,W,1,06,0.6,1571.0,M,13.0,M,,*71
$GPRMC,210140.0,A,0609.896671,N,07536.102995,W,0.0,17.4,200522,4.7,W,A*3C
$GPGGA,210141.0,0609.896669,N,07536.102993,W,1,07,0.6,1571.0,M,13.0,M,,*7E
$GPRMC,210141.0,A,0609.896669,N,07536.102993,W,0.0,17.4,200522,4.7,W,A*32
$GPGGA,210142.0,0609.896667,N,07536.102991,W,1,05,0.6,1571.0,M,13.0,M,,*73
$GPRMC,210142.0,A,0609.896667,N,07536.102991,W,0.0,17.4,200522,4.7,W,A*3D
$GPGGA,210143.0,0609.896667,N,07536.102989,W,1,06,0.6,1571.0,M,13.0,M,,*78
$GPRMC,210143.0,A,0609.896667,N,07536.102989,W,0.0,17.4,200522,4.7,W,A*35
$GPGGA,210144.0,0609.896666,N,07536.102988,W,1,06,0.6,1571.0,M,13.0,M,,*7F
$GPRMC,210144.0,A,0609.896666,N,07536.102988,W,0.0,17.4,200522,4.7,W,A*32
$GPGGA,210145.0,0609.896664,N,07536.102984,W,1,05,0.6,1571.0,M,13.0,M,,*73
$GPRMC,210145.0,A,0609.896664,N,07536.102984,W,0.0,17.4,200522,4.7,W,A*3D
$GPGGA,210146.0,0609.896666,N,07536.102984,W,1,06,0.6,1571.0,M,13.0,M,,*71
$GPRMC,210146.0,A,0609.896666,N,07536.102984,W,0.0,17.4,200522,4.7,W,A*3C
$GPGGA,210147.0,0609.896665,N,07536.102982,W,1,05,0.6,1571.0,M,13.0,M,,*76
$GPRMC,210147.0,A,0609.896665,N,07536.102982,W,0.0,17.4,200522,4.7,W,A*38
$GPGGA,210148.0,0609.896663,N,07536.102980,W,1,05,0.6,1571.0,M,13.0,M,,*7D
$GPRMC,210148.0,A,0609.896663,N,07536.102980,W,0.0,17.4,200522,4.7,W,A*33
$GPGGA,210149.0,0609.896661,N,07536.102978,W,1,05,0.6,1571.0,M,13.0,M,,*79
$GPRMC,210149.0,A,0609.896661,N,07536.102978,W,0.0,17.4,200522,4.7,W,A*37
$GPGGA,210150.0,0609.896660,N,07536.102975,W,1,05,0.6,1571.0,M,13.0,M,,*7D
$GPRMC,210150.0,A,0609.896660,N,07536.102975,W,0.0,17.4,200522,4.7,W,A*33
$GPGGA,210151.0,0609.896659,N,07536.102973,W,1,05,0.6,1571.0,M,13.0,M,,*70
$GPRMC,210151.0,A,0609.896659,N,07536.102973,W,0.0,17.4,200522,4.7,W,A*3E
$GPGGA,210152.0,0609.896658,N,07536.102970,W,1,05,0.6,1571.0,M,13.0,M,,*71
$GPRMC,210152.0,A,0609.896658,N,07536.102970,W,0.0,17.4,200522,4.7,W,A*3F
$GPGGA,210153.0,0609.896656,N,07536.102968,W,1,05,0.6,1571.0,M,13.0,M,,*77
$GPRMC,210153.0,A,0609.896656,N,07536.102968,W,0.0,17.4,200522,4.7,W,A*39
$GPGGA,210154.0,0609.896651,N,07536.102964,W,1,05,0.6,1571.0,M,13.0,M,,*7B
$GPRMC,210154.0,A,0609.896651,N,07536.102964,W,0.0,17.4,200522,4.7,W,A*35
$GPGGA,210155.0,0609.896647,N,07536.102962,W,1,05,0.6,1571.0,M,13.0,M,,*7B
$GPRMC,210155.0,A,0609.896647,N,07536.102962,W,0.0,17.4,200522,4.7,W,A*35
$GPGGA,210156.0,0609.896645,N,07536.102959,W,1,06,0.6,1571.0,M,13.0,M,,*71
$GPRMC,210156.0,A,0609.896645,N,07536.102959,W,0.0,17.4,200522,4.7,W,A*3C
$GPGGA,210157.0,0609.896645,N,07536.102959,W,1,04,2.4,1571.0,M,13.0,M,,*72
$GPRMC,210157.0,A,0609.896645,N,07536.102959,W,0.0,17.4,200522,4.7,W,A*3D
$GPGGA,210158.0,0609.896645,N,07536.102960,W,1,05,1.0,1571.0,M,13.0,M,,*71
$GPRMC,210158.0,A,0609.896645,N,07536.102960,W,0.0,17.4,200522,4.7,W,A*38
$GPGGA,210159.0,0609.896642,N,07536.102960,W,1,05,1.0,1571.0,M,13.0,M,,*77
$GPRMC,210159.0,A,0609.896642,N,07536.102960,W,0.0,17.4,200522,4.7,W,A*3E
$GPGGA,210200.0,0609.896642,N,07536.102960,W,1,04,1.3,1571.0,M,13.0,M,,*7A
$GPRMC,210200.0,A,0609.896642,N,07536.102960,W,0.0,17.4,200522,4.7,W,A*31
$GPGGA,210201.0,0609.896642,N,07536.102960,W,1,06,0.8,1571.0,M,13.0,M,,*73
$GPRMC,210201.0,A,0609.896642,N,07536.102960,W,0.0,17.4,200522,4.7,W,A*30
$GPGGA,210202.0,0609.896635,N,07536.102956,W,1,06,0.6,1571.1,M,13.0,M,,*7A
$GPRMC,210202.0,A,0609.896635,N,07536.102956,W,0.0,17.4,200522,4.7,W,A*36
$GPGGA,210203.0,0609.896630,N,07536.102952,W,1,06,0.6,1571.1,M,13.0,M,,*7A
$GPRMC,210203.0,A,0609.896630,N,07536.102952,W,0.0,17.4,200522,4.7,W,A*36
$GPGGA,210204.0,0609.896626,N,07536.102948,W,1,06,0.6,1571.1,M,13.0,M,,*71
$GPRMC,210204.0,A,0609.896626,N,07536.102948,W,0.0,17.4,200522,4.7,W,A*3D
$GPGGA,210205.0,0609.896622,N,07536.102944,W,1,05,0.6,1571.1,M,13.0,M,,*7B
$GPRMC,210205.0,A,0609.896622,N,07536.102944,W,0.0,17.4,200522,4.7,W,A*34
$GPGGA,210206.0,0609.896617,N,07536.102940,W,1,05,0.6,1571.1,M,13.0,M,,*7A
$GPRMC,210206.0,A,0609.896617,N,07536.102940,W,0.0,17.4,200522,4.7,W,A*35
$GPGGA,210207.0,0609.896613,N,07536.102937,W,1,05,0.6,1571.1,M,13.0,M,,*7F
$GPRMC,210207.0,A,0609.896613,N,07536.102937,W,0.0,17.4,200522,4.7,W,A*30
$GPGGA,210208.0,0609.896609,N,07536.102933,W,1,05,0.6,1571.1,M,13.0,M,,*7F
$GPRMC,210208.0,A,0609.896609,N,07536.102933,W,0.0,17.4,200522,4.7,W,A*30
$GPGGA,210209.0,0609.896606,N,07536.102930,W,1,04,0.7,1571.1,M,13.0,M,,*72
$GPRMC,210209.0,A,0609.896606,N,07536.102930,W,0.0,17.4,200522,4.7,W,A*3D
$GPGGA,210210.0,0609.896602,N,07536.102926,W,1,04,0.7,1571.1,M,13.0,M,,*79
$GPRMC,210210.0,A,0609.896602,N,07536.102926,W,0.0,17.4,200522,4.7,W,A*36
$GPGGA,210211.0,0609.896598,N,07536.102922,W,1,04,0.7,1571.1,M,13.0,M,,*7C
$GPRMC,210211.0,A,0609.896598,N,07536.102922,W,0.0,17.4,200522,4.7,W,A*33
$GPGGA,210212.0,0609.896594,N,07536.102919,W,1,05,0.6,1571.1,M,13.0,M,,*7B
$GPRMC,210212.0,A,0609.896594,N,07536.102919,W,0.0,17.4,200522,4.7,W,A*34
$GPGGA,210213.0,0609.896589,N,07536.102916,W,1,05,0.6,1571.1,M,13.0,M,,*79
$GPRMC,210213.0,A,0609.896589,N,07536.102916,W,0.0,17.4,200522,4.7,W,A*36
$GPGGA,210214.0,0609.896585,N,07536.102912,W,1,04,0.7,1571.1,M,13.0,M,,*76
$GPRMC,210214.0,A,0609.896585,N,07536.102912,W,0.0,17.4,200522,4.7,W,A*39
$GPGGA,210215.0,0609.896581,N,07536.102910,W,1,05,0.6,1571.1,M,13.0,M,,*71
$GPRMC,210215.0,A,0609.896581,N,07536.102910,W,0.0,17.4,200522,4.7,W,A*3E
$GPGGA,210216.0,0609.896578,N,07536.102907,W,1,05,0.6,1571.2,M,13.0,M,,*71
$GPRMC,210216.0,A,0609.896578,N,07536.102907,W,0.0,17.4,200522,4.7,W,A*3D
$GPGGA,210217.0,0609.896574,N,07536.102904,W,1,04,0.7,1571.2,M,13.0,M,,*7F
$GPRMC,210217.0,A,0609.896574,N,07536.102904,W,0.0,17.4,200522,4.7,W,A*33
$GPGGA,210218.0,0609.896570,N,07536.102901,W,1,04,0.7,1571.2,M,13.0,M,,*71
$GPRMC,210218.0,A,0609.896570,N,07536.102901,W,0.0,17.4,200522,4.7,W,A*3D
$GPGGA,210219.0,0609.896566,N,07536.102899,W,1,04,0.7,1571.2,M,13.0,M,,*77
$GPRMC,210219.0,A,0609.896566,N,07536.102899,W,0.0,17.4,200522,4.7,W,A*3B
$GPGGA,210220.0,0609.896563,N,07536.102896,W,1,04,0.7,1571.2,M,13.0,M,,*77
$GPRMC,210220.0,A,0609.896563,N,07536.102896,W,0.0,17.4,200522,4.7,W,A*3B
$GPGGA,210221.0,0609.896558,N,07536.102892,W,1,04,0.7,1571.2,M,13.0,M,,*7A
$GPRMC,210221.0,A,0609.896558,N,07536.102892,W,0.0,17.4,200522,4.7,W,A*36
$GPGGA,210222.0,0609.896553,N,07536.102888,W,1,04,0.7,1571.2,M,13.0,M,,*79
$GPRMC,210222.0,A,0609.896553,N,07536.102888,W,0.0,17.4,200522,4.7,W,A*35
$GPGGA,210223.0,0609.896549,N,07536.102884,W,1,04,0.7,1571.2,M,13.0,M,,*7F
$GPRMC,210223.0,A,0609.896549,N,07536.102884,W,0.0,17.4,200522,4.7,W,A*33
$GPGGA,210224.0,0609.896549,N,07536.102884,W,1,04,2.4,1571.2,M,13.0,M,,*79
$GPRMC,210224.0,A,0609.896549,N,07536.102884,W,0.0,17.4,200522,4.7,W,A*34
$GPGGA,210225.0,0609.896549,N,07536.102885,W,1,04,2.5,1571.2,M,13.0,M,,*78
$GPRMC,210225.0,A,0609.896549,N,07536.102885,W,0.0,17.4,200522,4.7,W,A*34
$GPGGA,210226.0,0609.896549,N,07536.102885,W,1,04,2.5,1571.2,M,13.0,M,,*7B
$GPRMC,210226.0,A,0609.896549,N,07536.102885,W,0.0,17.4,200522,4.7,W,A*37
$GPGGA,210227.0,0609.896549,N,07536.102884,W,1,05,0.8,1571.2,M,13.0,M,,*75
$GPRMC,210227.0,A,0609.896549,N,07536.102884,W,0.0,17.4,200522,4.7,W,A*37
$GPGGA,210228.0,0609.896551,N,07536.102886,W,1,04,1.0,1571.2,M,13.0,M,,*79
$GPRMC,210228.0,A,0609.896551,N,07536.102886,W,0.0,17.4,200522,4.7,W,A*33
$GPGGA,210229.0,0609.896551,N,07536.102886,W,1,04,1.0,1571.2,M,13.0,M,,*78
$GPRMC,210229.0,A,0609.896551,N,07536.102886,W,0.0,17.4,200522,4.7,W,A*32
$GPGGA,210230.0,0609.896547,N,07536.102882,W,1,05,0.6,1571.2,M,13.0,M,,*75
$GPRMC,210230.0,A,0609.896547,N,07536.102882,W,0.0,17.4,200522,4.7,W,A*39
$GPGGA,210231.0,0609.896542,N,07536.102878,W,1,05,0.6,1571.2,M,13.0,M,,*74
$GPRMC,210231.0,A,0609.896542,N,07536.102878,W,0.0,17.4,200522,4.7,W,A*38
$GPGGA,210232.0,0609.896538,N,07536.102875,W,1,04,0.7,1571.2,M,13.0,M,,*77
$GPRMC,210232.0,A,0609.896538,N,07536.102875,W,0.0,17.4,200522,4.7,W,A*3B
$GPGGA,210233.0,0609.896538,N,07536.102876,W,1,04,2.5,1571.2,M,13.0,M,,*75
$GPRMC,210233.0,A,0609.896538,N,07536.102876,W,0.0,17.4,200522,4.7,W,A*39
$GPGGA,210234.0,0609.896539,N,07536.102877,W,1,04,2.4,1571.2,M,13.0,M,,*73
$GPRMC,210234.0,A,0609.896539,N,07536.102877,W,0.0,17.4,200522,4.7,W,A*3E
$GPGGA,210235.0,0609.896538,N,07536.102877,W,1,05,1.1,1571.2,M,13.0,M,,*74
$GPRMC,210235.0,A,0609.896538,N,07536.102877,W,0.0,17.4,200522,4.7,W,A*3E
$GPGGA,210236.0,0609.896539,N,07536.102877,W,1,04,1.3,1571.2,M,13.0,M,,*75
$GPRMC,210236.0,A,0609.896539,N,07536.102877,W,0.0,17.4,200522,4.7,W,A*3C
$GPGGA,210237.0,0609.896541,N,07536.102877,W,1,04,2.5,1571.2,M,13.0,M,,*7E
$GPRMC,210237.0,A,0609.896541,N,07536.102877,W,0.0,17.4,200522,4.7,W,A*32
$GPGGA,210238.0,0609.896542,N,07536.102877,W,1,04,2.4,1571.2,M,13.0,M,,*73
$GPRMC,210238.0,A,0609.896542,N,07536.102877,W,0.0,17.4,200522,4.7,W,A*3E
$GPGGA,210239.0,0609.896543,N,07536.102878,W,1,04,2.4,1571.2,M,13.0,M,,*7C
$GPRMC,210239.0,A,0609.896543,N,07536.102878,W,0.0,17.4,200522,4.7,W,A*31
$GPGGA,210240.0,0609.896544,N,07536.102878,W,1,04,2.4,1571.2,M,13.0,M,,*75
$GPRMC,210240.0,A,0609.896544,N,07536.102878,W,0.0,17.4,200522,4.7,W,A*38
$GPGGA,210241.0,0609.896544,N,07536.102879,W,1,05,1.1,1571.2,M,13.0,M,,*72
$GPRMC,210241.0,A,0609.896544,N,07536.102879,W,0.0,17.4,200522,4.7,W,A*38
$GPGGA,210242.0,0609.896545,N,07536.102880,W,1,04,2.5,1571.2,M,13.0,M,,*70
$GPRMC,210242.0,A,0609.896545,N,07536.102880,W,0.0,17.4,200522,4.7,W,A*3C
$GPGGA,210243.0,0609.896546,N,07536.102880,W,1,04,2.5,1571.2,M,13.0,M,,*72
$GPRMC,210243.0,A,0609.896546,N,07536.102880,W,0.0,17.4,200522,4.7,W,A*3E
$GPGGA,210244.0,0609.896547,N,07536.102880,W,1,04,2.5,1571.2,M,13.0,M,,*74
$GPRMC,210244.0,A,0609.896547,N,07536.102880,W,0.0,17.4,200522,4.7,W,A*38
$GPGGA,210245.0,0609.896548,N,07536.102880,W,1,04,2.5,1571.2,M,13.0,M,,*7A
$GPRMC,210245.0,A,0609.896548,N,07536.102880,W,0.0,17.4,200522,4.7,W,A*36
$GPGGA,210246.0,0609.896551,N,07536.102880,W,1,05,1.1,1571.2,M,13.0,M,,*77
$GPRMC,210246.0,A,0609.896551,N,07536.102880,W,0.0,17.4,200522,4.7,W,A*3D
$GPGGA,210247.0,0609.896552,N,07536.102881,W,1,04,2.4,1571.2,M,13.0,M,,*73
$GPRMC,210247.0,A,0609.896552,N,07536.102881,W,0.0,17.4,200522,4.7,W,A*3E
$GPGGA,210248.0,0609.896552,N,07536.102880,W,1,04,2.4,1571.2,M,13.0,M,,*7D
$GPRMC,210248.0,A,0609.896552,N,07536.102880,W,0.0,17.4,200522,4.7,W,A*30
$GPGGA,210249.0,0609.896552,N,07536.102881,W,1,05,1.1,1571.2,M,13.0,M,,*7A
$GPRMC,210249.0,A,0609.896552,N,07536.102881,W,0.0,17.4,200522,4.7,W,A*30
$GPGGA,210250.0,0609.896552,N,07536.102881,W,1,04,2.4,1571.2,M,13.0,M,,*75
$GPRMC,210250.0,A,0609.896552,N,07536.102881,W,0.0,17.4,200522,4.7,W,A*38
$GPGGA,210251.0,0609.896552,N,07536.102881,W,1,04,2.4,1571.2,M,13.0,M,,*74
$GPRMC,210251.0,A,0609.896552,N,07536.102881,W,0.0,17.4,200522,4.7,W,A*39
$GPGGA,210252.0,0609.896553,N,07536.102881,W,1,06,0.8,1571.2,M,13.0,M,,*7A
$GPRMC,210252.0,A,0609.896553,N,07536.102881,W,0.0,17.4,200522,4.7,W,A*3B
$GPGGA,210253.0,0609.896555,N,07536.102881,W,1,06,0.8,1571.2,M,13.0,M,,*7D
$GPRMC,210253.0,A,0609.896555,N,07536.102881,W,0.0,17.4,200522,4.7,W,A*3C
$GPGGA,210254.0,0609.896558,N,07536.102882,W,1,04,2.4,1571.2,M,13.0,M,,*78
$GPRMC,210254.0,A,0609.896558,N,07536.102882,W,0.0,17.4,200522,4.7,W,A*35
$GPGGA,210255.0,0609.896558,N,07536.102882,W,1,04,2.4,1571.2,M,13.0,M,,*79
$GPRMC,210255.0,A,0609.896558,N,07536.102882,W,0.0,17.4,200522,4.7,W,A*34
$GPGGA,210256.0,0609.896559,N,07536.102882,W,1,07,0.8,1571.2,M,13.0,M,,*76
$GPRMC,210256.0,A,0609.896559,N,07536.102882,W,0.0,17.4,200522,4.7,W,A*36
$GPGGA,210257.0,0609.896563,N,07536.102882,W,1,06,0.9,1571.2,M,13.0,M,,*7E
$GPRMC,210257.0,A,0609.896563,N,07536.102882,W,0.0,17.4,200522,4.7,W,A*3E
$GPGGA,210258.0,0609.896565,N,07536.102882,W,1,06,0.9,1571.2,M,13.0,M,,*77
$GPRMC,210258.0,A,0609.896565,N,07536.102882,W,0.0,17.4,200522,4.7,W,A*37
$GPGGA,210259.0,0609.896562,N,07536.102879,W,1,06,0.6,1571.2,M,13.0,M,,*7A
$GPRMC,210259.0,A,0609.896562,N,07536.102879,W,0.0,17.4,200522,4.7,W,A*35
$GPGGA,210300.0,0609.896559,N,07536.102876,W,1,06,0.6,1571.2,M,13.0,M,,*70
$GPRMC,210300.0,A,0609.896559,N,07536.102876,W,0.0,17.4,200522,4.7,W,A*3F
$GPGGA,210301.0,0609.896557,N,07536.102873,W,1,06,0.6,1571.2,M,13.0,M,,*7A
$GPRMC,210301.0,A,0609.896557,N,07536.102873,W,0.0,17.4,200522,4.7,W,A*35
$GPGGA,210302.0,0609.896555,N,07536.102871,W,1,06,0.6,1571.2,M,13.0,M,,*79
$GPRMC,210302.0,A,0609.896555,N,07536.102871,W,0.0,17.4,200522,4.7,W,A*36
$GPGGA,210303.0,0609.896552,N,07536.102867,W,1,06,0.6,1571.2,M,13.0,M,,*78
$GPRMC,210303.0,A,0609.896552,N,07536.102867,W,0.0,17.4,200522,4.7,W,A*37
$GPGGA,210304.0,0609.896550,N,07536.102864,W,1,06,0.6,1571.2,M,13.0,M,,*7E
$GPRMC,210304.0,A,0609.896550,N,07536.102864,W,0.0,17.4,200522,4.7,W,A*31
$GPGGA,210305.0,0609.896551,N,07536.102864,W,1,05,1.1,1571.2,M,13.0,M,,*7B
$GPRMC,210305.0,A,0609.896551,N,07536.102864,W,0.0,17.4,200522,4.7,W,A*31
$GPGGA,210306.0,0609.896549,N,07536.102863,W,1,04,2.4,1571.2,M,13.0,M,,*71
$GPRMC,210306.0,A,0609.896549,N,07536.102863,W,0.0,17.4,200522,4.7,W,A*3C
$GPGGA,210307.0,0609.896550,N,07536.102863,W,1,05,1.1,1571.2,M,13.0,M,,*7F
$GPRMC,210307.0,A,0609.896550,N,07536.102863,W,0.0,17.4,200522,4.7,W,A*35
$GPGGA,210308.0,0609.896550,N,07536.102863,W,1,04,2.4,1571.2,M,13.0,M,,*77
$GPRMC,210308.0,A,0609.896550,N,07536.102863,W,0.0,17.4,200522,4.7,W,A*3A
$GPGGA,210309.0,0609.896551,N,07536.102863,W,1,04,2.1,1571.2,M,13.0,M,,*72
$GPRMC,210309.0,A,0609.896551,N,07536.102863,W,0.0,17.4,200522,4.7,W,A*3A
$GPGGA,210310.0,0609.896551,N,07536.102863,W,1,06,0.9,1571.2,M,13.0,M,,*72
$GPRMC,210310.0,A,0609.896551,N,07536.102863,W,0.0,17.4,200522,4.7,W,A*32
$GPGGA,210311.0,0609.896552,N,07536.102862,W,1,07,0.8,1571.2,M,13.0,M,,*71
$GPRMC,210311.0,A,0609.896552,N,07536.102862,W,0.0,17.4,200522,4.7,W,A*31
$GPGGA,210312.0,0609.896553,N,07536.102861,W,1,06,0.9,1571.2,M,13.0,M,,*70
$GPRMC,210312.0,A,0609.896553,N,07536.102861,W,0.0,17.4,200522,4.7,W,A*30
$GPGGA,210313.0,0609.896554,N,07536.102860,W,1,05,1.1,1571.2,M,13.0,M,,*7D
$GPRMC,210313.0,A,0609.896554,N,07536.102860,W,0.0,17.4,200522,4.7,W,A*37
$GPGGA,210314.0,0609.896554,N,07536.102860,W,1,05,1.1,1571.2,M,13.0,M,,*7A
$GPRMC,210314.0,A,0609.896554,N,07536.102860,W,0.0,17.4,200522,4.7,W,A*30
$GPGGA,210315.0,0609.896554,N,07536.102859,W,1,05,0.9,1571.2,M,13.0,M,,*78
$GPRMC,210315.0,A,0609.896554,N,07536.102859,W,0.0,17.4,200522,4.7,W,A*3B
$GPGGA,210316.0,0609.896554,N,07536.102859,W,1,04,4.3,1571.2,M,13.0,M,,*74
$GPRMC,210316.0,A,0609.896554,N,07536.102859,W,0.0,17.4,200522,4.7,W,A*38
$GPGGA,210317.0,0609.896553,N,07536.102859,W,1,05,1.1,1571.2,M,13.0,M,,*74
$GPRMC,210317.0,A,0609.896553,N,07536.102859,W,0.0,17.4,200522,4.7,W,A*3E
$GPGGA,210318.0,0609.896551,N,07536.102857,W,1,05,1.4,1571.2,M,13.0,M,,*72
$GPRMC,210318.0,A,0609.896551,N,07536.102857,W,0.0,17.4,200522,4.7,W,A*3D
$GPGGA,210319.0,0609.896551,N,07536.102856,W,1,05,1.2,1571.2,M,13.0,M,,*74
$GPRMC,210319.0,A,0609.896551,N,07536.102856,W,0.0,17.4,200522,4.7,W,A*3D
$GPGGA,210320.0,0609.896552,N,07536.102855,W,1,05,1.2,1571.2,M,13.0,M,,*7E
$GPRMC,210320.0,A,0609.896552,N,07536.102855,W,0.0,17.4,200522,4.7,W,A*37
$GPGGA,210321.0,0609.896553,N,07536.102854,W,1,04,2.4,1571.2,M,13.0,M,,*7B
$GPRMC,210321.0,A,0609.896553,N,07536.102854,W,0.0,17.4,200522,4.7,W,A*36
$GPGGA,210322.0,0609.896552,N,07536.102854,W,1,05,1.2,1571.2,M,13.0,M,,*7D
$GPRMC,210322.0,A,0609.896552,N,07536.102854,W,0.0,17.4,200522,4.7,W,A*34
$GPGGA,210323.0,0609.896552,N,07536.102854,W,1,04,2.5,1571.2,M,13.0,M,,*79
$GPRMC,210323.0,A,0609.896552,N,07536.102854,W,0.0,17.4,200522,4.7,W,A*35
$GPGGA,210324.0,0609.896552,N,07536.102854,W,1,05,1.2,1571.2,M,13.0,M,,*7B
$GPRMC,210324.0,A,0609.896552,N,07536.102854,W,0.0,17.4,200522,4.7,W,A*32
$GPGGA,210325.0,0609.896551,N,07536.102854,W,1,05,1.2,1571.2,M,13.0,M,,*79
$GPRMC,210325.0,A,0609.896551,N,07536.102854,W,0.0,17.4,200522,4.7,W,A*30
$GPGGA,210326.0,0609.896551,N,07536.102854,W,1,05,1.2,1571.2,M,13.0,M,,*7A
$GPRMC,210326.0,A,0609.896551,N,07536.102854,W,0.0,17.4,200522,4.7,W,A*33
$GPGGA,210327.0,0609.896552,N,07536.102853,W,1,04,2.4,1571.2,M,13.0,M,,*7B
$GPRMC,210327.0,A,0609.896552,N,07536.102853,W,0.0,17.4,200522,4.7,W,A*36
$GPGGA,210328.0,0609.896552,N,07536.102853,W,1,04,2.4,1571.2,M,13.0,M,,*74
$GPRMC,210328.0,A,0609.896552,N,07536.102853,W,0.0,17.4,200522,4.7,W,A*39
$GPGGA,210329.0,0609.896552,N,07536.102852,W,1,06,0.9,1571.2,M,13.0,M,,*79
$GPRMC,210329.0,A,0609.896552,N,07536.102852,W,0.0,17.4,200522,4.7,W,A*39
$GPGGA,210330.0,0609.896553,N,07536.102852,W,1,05,1.2,1571.2,M,13.0,M,,*79
$GPRMC,210330.0,A,0609.896553,N,07536.102852,W,0.0,17.4,200522,4.7,W,A*30
$GPGGA,210331.0,0609.896552,N,07536.102853,W,1,04,2.4,1571.2,M,13.0,M,,*7C
$GPRMC,210331.0,A,0609.896552,N,07536.102853,W,0.0,17.4,200522,4.7,W,A*31
$GPGGA,210332.0,0609.896553,N,07536.102853,W,1,04,2.5,1571.2,M,13.0,M,,*7F
$GPRMC,210332.0,A,0609.896553,N,07536.102853,W,0.0,17.4,200522,4.7,W,A*33
$GPGGA,210333.0,0609.896555,N,07536.102853,W,1,05,1.3,1571.2,M,13.0,M,,*7C
$GPRMC,210333.0,A,0609.896555,N,07536.102853,W,0.0,17.4,200522,4.7,W,A*34
$GPGGA,210334.0,0609.896556,N,07536.102853,W,1,04,2.5,1571.2,M,13.0,M,,*7C
$GPRMC,210334.0,A,0609.896556,N,07536.102853,W,0.0,17.4,200522,4.7,W,A*30
$GPGGA,210335.0,0609.896555,N,07536.102853,W,1,04,2.5,1571.2,M,13.0,M,,*7E
$GPRMC,210335.0,A,0609.896555,N,07536.102853,W,0.0,17.4,200522,4.7,W,A*32
$GPGGA,210336.0,0609.896554,N,07536.102852,W,1,04,2.0,1571.2,M,13.0,M,,*78
$GPRMC,210336.0,A,0609.896554,N,07536.102852,W,0.0,17.4,200522,4.7,W,A*31
$GPGGA,210337.0,0609.896555,N,07536.102852,W,1,04,2.5,1571.2,M,13.0,M,,*7D
$GPRMC,210337.0,A,0609.896555,N,07536.102852,W,0.0,17.4,200522,4.7,W,A*31
$GPGGA,210338.0,0609.896555,N,07536.102853,W,1,05,1.3,1571.2,M,13.0,M,,*77
$GPRMC,210338.0,A,0609.896555,N,07536.102853,W,0.0,17.4,200522,4.7,W,A*3F
$GPGGA,210339.0,0609.896556,N,07536.102853,W,1,05,1.3,1571.2,M,13.0,M,,*75
$GPRMC,210339.0,A,0609.896556,N,07536.102853,W,0.0,17.4,200522,4.7,W,A*3D
$GPGGA,210340.0,0609.896557,N,07536.102852,W,1,05,1.3,1571.2,M,13.0,M,,*7B
$GPRMC,210340.0,A,0609.896557,N,07536.102852,W,0.0,17.4,200522,4.7,W,A*33
$GPGGA,210341.0,0609.896557,N,07536.102852,W,1,05,1.3,1571.2,M,13.0,M,,*7A
$GPRMC,210341.0,A,0609.896557,N,07536.102852,W,0.0,17.4,200522,4.7,W,A*32
$GPGGA,210342.0,0609.896557,N,07536.102852,W,1,06,1.0,1571.2,M,13.0,M,,*79
$GPRMC,210342.0,A,0609.896557,N,07536.102852,W,0.0,17.4,200522,4.7,W,A*31
$GPGGA,210343.0,0609.896558,N,07536.102852,W,1,05,1.3,1571.2,M,13.0,M,,*77
$GPRMC,210343.0,A,0609.896558,N,07536.102852,W,0.0,17.4,200522,4.7,W,A*3F
$GPGGA,210344.0,0609.896558,N,07536.102853,W,1,06,0.9,1571.2,M,13.0,M,,*79
$GPRMC,210344.0,A,0609.896558,N,07536.102853,W,0.0,17.4,200522,4.7,W,A*39
$GPGGA,210345.0,0609.896559,N,07536.102852,W,1,06,0.9,1571.2,M,13.0,M,,*78
$GPRMC,210345.0,A,0609.896559,N,07536.102852,W,0.0,17.4,200522,4.7,W,A*38
$GPGGA,210346.0,0609.896559,N,07536.102853,W,1,06,0.9,1571.2,M,13.0,M,,*7A
$GPRMC,210346.0,A,0609.896559,N,07536.102853,W,0.0,17.4,200522,4.7,W,A*3A
$GPGGA,210347.0,0609.896559,N,07536.102852,W,1,06,0.9,1571.2,M,13.0,M,,*7A
$GPRMC,210347.0,A,0609.896559,N,07536.102852,W,0.0,17.4,200522,4.7,W,A*3A
$GPGGA,210348.0,0609.896557,N,07536.102850,W,1,05,1.2,1571.2,M,13.0,M,,*70
$GPRMC,210348.0,A,0609.896557,N,07536.102850,W,0.0,17.4,200522,4.7,W,A*39
$GPGGA,210349.0,0609.896557,N,07536.102850,W,1,06,1.0,1571.2,M,13.0,M,,*70
$GPRMC,210349.0,A,0609.896557,N,07536.102850,W,0.0,17.4,200522,4.7,W,A*38
$GPGGA,210350.0,0609.896556,N,07536.102850,W,1,06,0.9,1571.2,M,13.0,M,,*71
$GPRMC,210350.0,A,0609.896556,N,07536.102850,W,0.0,17.4,200522,4.7,W,A*31
$GPGGA,210351.0,0609.896557,N,07536.102850,W,1,05,1.1,1571.2,M,13.0,M,,*7B
$GPRMC,210351.0,A,0609.896557,N,07536.102850,W,0.0,17.4,200522,4.7,W,A*31
$GPGGA,210352.0,0609.896558,N,07536.102850,W,1,06,0.9,1571.2,M,13.0,M,,*7D
$GPRMC,210352.0,A,0609.896558,N,07536.102850,W,0.0,17.4,200522,4.7,W,A*3D
$GPGGA,210353.0,0609.896558,N,07536.102849,W,1,06,0.9,1571.2,M,13.0,M,,*74
$GPRMC,210353.0,A,0609.896558,N,07536.102849,W,0.0,17.4,200522,4.7,W,A*34
$GPGGA,210354.0,0609.896560,N,07536.102849,W,1,05,1.0,1571.1,M,13.0,M,,*70
$GPRMC,210354.0,A,0609.896560,N,07536.102849,W,0.0,17.4,200522,4.7,W,A*38
$GPGGA,210355.0,0609.896562,N,07536.102849,W,1,06,1.0,1571.1,M,13.0,M,,*70
$GPRMC,210355.0,A,0609.896562,N,07536.102849,W,0.0,17.4,200522,4.7,W,A*3B
$GPGGA,210356.0,0609.896562,N,07536.102850,W,1,05,0.8,1571.1,M,13.0,M,,*71
$GPRMC,210356.0,A,0609.896562,N,07536.102850,W,0.0,17.4,200522,4.7,W,A*30
$GPGGA,210357.0,0609.896562,N,07536.102850,W,1,05,0.9,1571.1,M,13.0,M,,*71
$GPRMC,210357.0,A,0609.896562,N,07536.102850,W,0.0,17.4,200522,4.7,W,A*31
$GPGGA,210358.0,0609.896562,N,07536.102849,W,1,05,0.9,1571.1,M,13.0,M,,*76
$GPRMC,210358.0,A,0609.896562,N,07536.102849,W,0.0,17.4,200522,4.7,W,A*36
$GPGGA,210359.0,0609.896563,N,07536.102849,W,1,05,0.8,1571.1,M,13.0,M,,*77
$GPRMC,210359.0,A,0609.896563,N,07536.102849,W,0.0,17.4,200522,4.7,W,A*36
$GPGGA,210400.0,0609.896563,N,07536.102849,W,1,05,0.8,1571.1,M,13.0,M,,*7C
$GPRMC,210400.0,A,0609.896563,N,07536.102849,W,0.0,17.4,200522,4.7,W,A*3D
$GPGGA,210401.0,0609.896564,N,07536.102848,W,1,04,2.4,1571.1,M,13.0,M,,*74
$GPRMC,210401.0,A,0609.896564,N,07536.102848,W,0.0,17.4,200522,4.7,W,A*3A
$GPGGA,210402.0,0609.896564,N,07536.102848,W,1,04,2.4,1571.1,M,13.0,M,,*77
$GPRMC,210402.0,A,0609.896564,N,07536.102848,W,0.0,17.4,200522,4.7,W,A*39
$GPGGA,210403.0,0609.896563,N,07536.102848,W,1,06,0.8,1571.1,M,13.0,M,,*7D
$GPRMC,210403.0,A,0609.896563,N,07536.102848,W,0.0,17.4,200522,4.7,W,A*3F
$GPGGA,210404.0,0609.896564,N,07536.102848,W,1,04,1.4,1571.1,M,13.0,M,,*72
$GPRMC,210404.0,A,0609.896564,N,07536.102848,W,0.0,17.4,200522,4.7,W,A*3F
$GPGGA,210405.0,0609.896565,N,07536.102848,W,1,04,1.0,1571.1,M,13.0,M,,*76
$GPRMC,210405.0,A,0609.896565,N,07536.102848,W,0.0,17.4,200522,4.7,W,A*3F
$GPGGA,210406.0,0609.896566,N,07536.102848,W,1,05,1.0,1571.1,M,13.0,M,,*77
$GPRMC,210406.0,A,0609.896566,N,07536.102848,W,0.0,17.4,200522,4.7,W,A*3F
$GPGGA,210407.0,0609.896566,N,07536.102848,W,1,04,1.4,1571.1,M,13.0,M,,*73
$GPRMC,210407.0,A,0609.896566,N,07536.102848,W,0.0,17.4,200522,4.7,W,A*3E
$GPGGA,210408.0,0609.896566,N,07536.102848,W,1,04,2.4,1571.1,M,13.0,M,,*7F
$GPRMC,210408.0,A,0609.896566,N,07536.102848,W,0.0,17.4,200522,4.7,W,A*31
$GPGGA,210409.0,0609.896566,N,07536.102848,W,1,04,2.4,1571.1,M,13.0,M,,*7E
$GPRMC,210409.0,A,0609.896566,N,07536.102848,W,0.0,17.4,200522,4.7,W,A*30
$GPGGA,210410.0,0609.896567,N,07536.102847,W,1,05,0.9,1571.1,M,13.0,M,,*76
$GPRMC,210410.0,A,0609.896567,N,07536.102847,W,0.0,17.4,200522,4.7,W,A*36
$GPGGA,210411.0,0609.896566,N,07536.102847,W,1,04,2.4,1571.1,M,13.0,M,,*78
$GPRMC,210411.0,A,0609.896566,N,07536.102847,W,0.0,17.4,200522,4.7,W,A*36
$GPGGA,210412.0,0609.896566,N,07536.102846,W,1,04,1.4,1571.1,M,13.0,M,,*79
$GPRMC,210412.0,A,0609.896566,N,07536.102846,W,0.0,17.4,200522,4.7,W,A*34
$GPGGA,210413.0,0609.896568,N,07536.102846,W,1,04,1.3,1571.1,M,13.0,M,,*71
$GPRMC,210413.0,A,0609.896568,N,07536.102846,W,0.0,17.4,200522,4.7,W,A*3B
$GPGGA,210414.0,0609.896569,N,07536.102846,W,1,04,1.4,1571.1,M,13.0,M,,*70
$GPRMC,210414.0,A,0609.896569,N,07536.102846,W,0.0,17.4,200522,4.7,W,A*3D
$GPGGA,210415.0,0609.896569,N,07536.102845,W,1,04,1.3,1571.1,M,13.0,M,,*75
$GPRMC,210415.0,A,0609.896569,N,07536.102845,W,0.0,17.4,200522,4.7,W,A*3F
$GPGGA,210416.0,0609.896569,N,07536.102844,W,1,04,1.3,1571.1,M,13.0,M,,*77
$GPRMC,210416.0,A,0609.896569,N,07536.102844,W,0.0,17.4,200522,4.7,W,A*3D
$GPGGA,210417.0,0609.896570,N,07536.102844,W,1,04,2.4,1571.1,M,13.0,M,,*7A
$GPRMC,210417.0,A,0609.896570,N,07536.102844,W,0.0,17.4,200522,4.7,W,A*34
$GPGGA,210418.0,0609.896570,N,07536.102844,W,1,04,2.4,1571.1,M,13.0,M,,*75
$GPRMC,210418.0,A,0609.896570,N,07536.102844,W,0.0,17.4,200522,4.7,W,A*3B
$GPGGA,210419.0,0609.896572,N,07536.102844,W,1,05,1.1,1571.1,M,13.0,M,,*71
$GPRMC,210419.0,A,0609.896572,N,07536.102844,W,0.0,17.4,200522,4.7,W,A*38
$GPGGA,210420.0,0609.896573,N,07536.102845,W,1,04,1.4,1571.1,M,13.0,M,,*7F
$GPRMC,210420.0,A,0609.896573,N,07536.102845,W,0.0,17.4,200522,4.7,W,A*32
$GPGGA,210421.0,0609.896575,N,07536.102845,W,1,05,0.9,1571.1,M,13.0,M,,*75
$GPRMC,210421.0,A,0609.896575,N,07536.102845,W,0.0,17.4,200522,4.7,W,A*35
$GPGGA,210422.0,0609.896577,N,07536.102845,W,1,04,1.4,1571.1,M,13.0,M,,*79
$GPRMC,210422.0,A,0609.896577,N,07536.102845,W,0.0,17.4,200522,4.7,W,A*34
$GPGGA,210423.0,0609.896577,N,07536.102844,W,1,05,0.9,1571.1,M,13.0,M,,*74
$GPRMC,210423.0,A,0609.896577,N,07536.102844,W,0.0,17.4,200522,4.7,W,A*34
$GPGGA,210424.0,0609.896579,N,07536.102845,W,1,04,1.4,1571.1,M,13.0,M,,*71
$GPRMC,210424.0,A,0609.896579,N,07536.102845,W,0.0,17.4,200522,4.7,W,A*3C
$GPGGA,210425.0,0609.896580,N,07536.102844,W,1,04,2.4,1571.1,M,13.0,M,,*74
$GPRMC,210425.0,A,0609.896580,N,07536.102844,W,0.0,17.4,200522,4.7,W,A*3A
$GPGGA,210426.0,0609.896580,N,07536.102843,W,1,04,2.4,1571.1,M,13.0,M,,*70
$GPRMC,210426.0,A,0609.896580,N,07536.102843,W,0.0,17.4,200522,4.7,W,A*3E
$GPGGA,210427.0,0609.896579,N,07536.102842,W,1,04,2.4,1571.1,M,13.0,M,,*76
$GPRMC,210427.0,A,0609.896579,N,07536.102842,W,0.0,17.4,200522,4.7,W,A*38
$GPGGA,210428.0,0609.896579,N,07536.102841,W,1,04,1.4,1571.1,M,13.0,M,,*79
$GPRMC,210428.0,A,0609.896579,N,07536.102841,W,0.0,17.4,200522,4.7,W,A*34
$GPGGA,210429.0,0609.896579,N,07536.102841,W,1,04,1.4,1571.1,M,13.0,M,,*78
$GPRMC,210429.0,A,0609.896579,N,07536.102841,W,0.0,17.4,200522,4.7,W,A*35
$GPGGA,210430.0,0609.896579,N,07536.102841,W,1,04,1.0,1571.1,M,13.0,M,,*74
$GPRMC,210430.0,A,0609.896579,N,07536.102841,W,0.0,17.4,200522,4.7,W,A*3D
$GPGGA,210431.0,0609.896580,N,07536.102840,W,1,05,0.9,1571.1,M,13.0,M,,*7B
$GPRMC,210431.0,A,0609.896580,N,07536.102840,W,0.0,17.4,200522,4.7,W,A*3B
$GPGGA,210432.0,0609.896578,N,07536.102838,W,1,05,0.6,1571.1,M,13.0,M,,*7F
$GPRMC,210432.0,A,0609.896578,N,07536.102838,W,0.0,17.4,200522,4.7,W,A*30
$GPGGA,210433.0,0609.896576,N,07536.102836,W,1,05,0.6,1571.1,M,13.0,M,,*7E
$GPRMC,210433.0,A,0609.896576,N,07536.102836,W,0.0,17.4,200522,4.7,W,A*31
$GPGGA,210434.0,0609.896575,N,07536.102836,W,1,05,0.6,1571.1,M,13.0,M,,*7A
$GPRMC,210434.0,A,0609.896575,N,07536.102836,W,0.0,17.4,200522,4.7,W,A*35
$GPGGA,210435.0,0609.896574,N,07536.102835,W,1,05,0.6,1571.1,M,13.0,M,,*79
$GPRMC,210435.0,A,0609.896574,N,07536.102835,W,0.0,17.4,200522,4.7,W,A*36
$GPGGA,210436.0,0609.896573,N,07536.102834,W,1,04,0.7,1571.1,M,13.0,M,,*7C
$GPRMC,210436.0,A,0609.896573,N,07536.102834,W,0.0,17.4,200522,4.7,W,A*33
$GPGGA,210437.0,0609.896572,N,07536.102833,W,1,05,0.6,1571.1,M,13.0,M,,*7B
$GPRMC,210437.0,A,0609.896572,N,07536.102833,W,0.0,17.4,200522,4.7,W,A*34
$GPGGA,210438.0,0609.896572,N,07536.102832,W,1,06,0.6,1571.1,M,13.0,M,,*76
$GPRMC,210438.0,A,0609.896572,N,07536.102832,W,0.0,17.4,200522,4.7,W,A*3A
$GPGGA,210439.0,0609.896571,N,07536.102831,W,1,05,0.6,1571.1,M,13.0,M,,*74
$GPRMC,210439.0,A,0609.896571,N,07536.102831,W,0.0,17.4,200522,4.7,W,A*3B
$GPGGA,210440.0,0609.896570,N,07536.102830,W,1,06,0.6,1571.1,M,13.0,M,,*79
$GPRMC,210440.0,A,0609.896570,N,07536.102830,W,0.0,17.4,200522,4.7,W,A*35
$GPGGA,210441.0,0609.896571,N,07536.102829,W,1,07,0.6,1571.1,M,13.0,M,,*70
$GPRMC,210441.0,A,0609.896571,N,07536.102829,W,0.0,17.4,200522,4.7,W,A*3D
$GPGGA,210442.0,0609.896571,N,07536.102829,W,1,05,0.6,1571.1,M,13.0,M,,*71
$GPRMC,210442.0,A,0609.896571,N,07536.102829,W,0.0,17.4,200522,4.7,W,A*3E
$GPGGA,210443.0,0609.896572,N,07536.102828,W,1,04,1.7,1571.1,M,13.0,M,,*73
$GPRMC,210443.0,A,0609.896572,N,07536.102828,W,0.0,17.4,200522,4.7,W,A*3D
$GPGGA,210444.0,0609.896573,N,07536.102828,W,1,04,1.7,1571.1,M,13.0,M,,*75
$GPRMC,210444.0,A,0609.896573,N,07536.102828,W,0.0,17.4,200522,4.7,W,A*3B
$GPGGA,210445.0,0609.896574,N,07536.102828,W,1,05,1.0,1571.1,M,13.0,M,,*75
$GPRMC,210445.0,A,0609.896574,N,07536.102828,W,0.0,17.4,200522,4.7,W,A*3D
$GPGGA,210446.0,0609.896575,N,07536.102828,W,1,04,1.4,1571.1,M,13.0,M,,*72
$GPRMC,210446.0,A,0609.896575,N,07536.102828,W,0.0,17.4,200522,4.7,W,A*3F
$GPGGA,210447.0,0609.896574,N,07536.102828,W,1,05,0.9,1571.1,M,13.0,M,,*7F
$GPRMC,210447.0,A,0609.896574,N,07536.102828,W,0.0,17.4,200522,4.7,W,A*3F
$GPGGA,210448.0,0609.896577,N,07536.102828,W,1,05,1.0,1571.1,M,13.0,M,,*7B
$GPRMC,210448.0,A,0609.896577,N,07536.102828,W,0.0,17.4,200522,4.7,W,A*33
$GPGGA,210449.0,0609.896578,N,07536.102827,W,1,04,1.4,1571.1,M,13.0,M,,*7F
$GPRMC,210449.0,A,0609.896578,N,07536.102827,W,0.0,17.4,200522,4.7,W,A*32
$GPGGA,210450.0,0609.896578,N,07536.102826,W,1,04,1.4,1571.1,M,13.0,M,,*76
$GPRMC,210450.0,A,0609.896578,N,07536.102826,W,0.0,17.4,200522,4.7,W,A*3B
$GPGGA,210451.0,0609.896579,N,07536.102826,W,1,05,0.9,1571.1,M,13.0,M,,*7B
$GPRMC,210451.0,A,0609.896579,N,07536.102826,W,0.0,17.4,200522,4.7,W,A*3B
$GPGGA,210452.0,0609.896579,N,07536.102825,W,1,06,1.1,1571.1,M,13.0,M,,*71
$GPRMC,210452.0,A,0609.896579,N,07536.102825,W,0.0,17.4,200522,4.7,W,A*3B
$GPGGA,210453.0,0609.896580,N,07536.102827,W,1,06,1.0,1571.1,M,13.0,M,,*75
$GPRMC,210453.0,A,0609.896580,N,07536.102827,W,0.0,17.4,200522,4.7,W,A*3E
$GPGGA,210454.0,0609.896581,N,07536.102827,W,1,06,0.9,1571.1,M,13.0,M,,*7B
$GPRMC,210454.0,A,0609.896581,N,07536.102827,W,0.0,17.4,200522,4.7,W,A*38
$GPGGA,210455.0,0609.896581,N,07536.102827,W,1,05,1.1,1571.1,M,13.0,M,,*70
$GPRMC,210455.0,A,0609.896581,N,07536.102827,W,0.0,17.4,200522,4.7,W,A*39
$GPGGA,210456.0,0609.896581,N,07536.102827,W,1,05,1.1,1571.1,M,13.0,M,,*73
$GPRMC,210456.0,A,0609.896581,N,07536.102827,W,0.0,17.4,200522,4.7,W,A*3A
$GPGGA,210457.0,0609.896582,N,07536.102826,W,1,07,0.8,1571.1,M,13.0,M,,*7A
$GPRMC,210457.0,A,0609.896582,N,07536.102826,W,0.0,17.4,200522,4.7,W,A*39
$GPGGA,210458.0,0609.896583,N,07536.102826,W,1,06,1.0,1571.1,M,13.0,M,,*7C
$GPRMC,210458.0,A,0609.896583,N,07536.102826,W,0.0,17.4,200522,4.7,W,A*37
$GPGGA,210459.0,0609.896583,N,07536.102826,W,1,07,0.8,1571.1,M,13.0,M,,*75
$GPRMC,210459.0,A,0609.896583,N,07536.102826,W,0.0,17.4,200522,4.7,W,A*36
$GPGGA,210500.0,0609.896583,N,07536.102826,W,1,07,0.8,1571.1,M,13.0,M,,*78
$GPRMC,210500.0,A,0609.896583,N,07536.102826,W,0.0,17.4,200522,4.7,W,A*3B
$GPGGA,210501.0,0609.896582,N,07536.102827,W,1,07,0.8,1571.1,M,13.0,M,,*79
$GPRMC,210501.0,A,0609.896582,N,07536.102827,W,0.0,17.4,200522,4.7,W,A*3A
$GPGGA,210502.0,0609.896583,N,07536.102826,W,1,06,0.9,1571.1,M,13.0,M,,*7A
$GPRMC,210502.0,A,0609.896583,N,07536.102826,W,0.0,17.4,200522,4.7,W,A*39
$GPGGA,210503.0,0609.896584,N,07536.102826,W,1,06,0.9,1571.1,M,13.0,M,,*7C
$GPRMC,210503.0,A,0609.896584,N,07536.102826,W,0.0,17.4,200522,4.7,W,A*3F
$GPGGA,210504.0,0609.896586,N,07536.102826,W,1,06,0.9,1571.1,M,13.0,M,,*79
